[{"_id":"000000000000000000000001","name":"Bách hóa XANH Nguyễn Thị Thập","address":"136 Nguyễn Thị Thập, Phường Bình Thuận, Quận 7","city":"Hồ Chí Minh","phone":"19001908","manager":"mgr.q7@bachhoaxanh.com","is_active":true,"operating_hours":"08:00 - 22:00","coordinates":{"lat":10.7412,"lng":106.7032},"coverage_radius_km":5,"__v":0,"createdAt":"2026-06-23T06:30:15.510Z","updatedAt":"2026-06-23T06:30:26.496Z"},{"_id":"000000000000000000000002","name":"Bách hóa XANH Thống Nhất","address":"542 Thống Nhất, Phường 15, Quận Gò Vấp","city":"Hồ Chí Minh","phone":"19001909","manager":"mgr.gv@bachhoaxanh.com","is_active":true,"operating_hours":"08:00 - 22:00","coordinates":{"lat":10.8407,"lng":106.6784},"coverage_radius_km":5,"__v":0,"createdAt":"2026-06-23T06:30:15.510Z","updatedAt":"2026-06-23T06:30:26.595Z"},{"_id":"000000000000000000000003","name":"Bách hóa XANH Giang Văn Minh","address":"42 Giang Văn Minh, Phường Kim Mã, Quận Ba Đình","city":"Hà Nội","phone":"19001910","manager":"mgr.bd@bachhoaxanh.com","is_active":true,"operating_hours":"08:00 - 22:00","coordinates":{"lat":21.0315,"lng":105.8234},"coverage_radius_km":5,"__v":0,"createdAt":"2026-06-23T06:30:15.510Z","updatedAt":"2026-06-23T06:30:26.707Z"},{"_id":"000000000000000000000004","name":"Bách hóa XANH Trưng Nữ Vương","address":"80 Trưng Nữ Vương, Phường Bình Hiên, Quận Hải Châu","city":"Đà Nẵng","phone":"19001911","manager":"mgr.dn@bachhoaxanh.com","is_active":true,"operating_hours":"08:00 - 22:00","coordinates":{"lat":16.0594,"lng":108.2198},"coverage_radius_km":5,"__v":0,"createdAt":"2026-06-23T06:30:15.510Z","updatedAt":"2026-06-23T06:30:26.814Z"},{"_id":"000000000000000000000005","__v":0,"address":"150 Võ Văn Ngân, Phường Bình Thọ, Thành phố Thủ Đức","city":"Hồ Chí Minh","coordinates":{"lat":10.8491,"lng":106.7725},"coverage_radius_km":5,"createdAt":"2026-06-23T06:30:26.904Z","is_active":true,"manager":"","name":"Bách hóa XANH Võ Văn Ngân","operating_hours":"08:00 - 22:00","phone":"19001912","updatedAt":"2026-06-23T06:30:26.904Z"},{"_id":"000000000000000000000006","__v":0,"address":"220 Lê Văn Việt, Phường Tăng Nhơn Phú B, Thành phố Thủ Đức","city":"Hồ Chí Minh","coordinates":{"lat":10.8385,"lng":106.7865},"coverage_radius_km":5,"createdAt":"2026-06-23T06:30:27.066Z","is_active":true,"manager":"","name":"Bách hóa XANH Lê Văn Việt","operating_hours":"08:00 - 22:00","phone":"19001913","updatedAt":"2026-06-23T06:30:27.066Z"},{"_id":"000000000000000000000007","__v":0,"address":"850 Kha Vạn Cân, Phường Linh Chiểu, Thành phố Thủ Đức","city":"Hồ Chí Minh","coordinates":{"lat":10.8524,"lng":106.7621},"coverage_radius_km":5,"createdAt":"2026-06-23T06:30:29.166Z","is_active":true,"manager":"","name":"Bách hóa XANH Kha Vạn Cân","operating_hours":"08:00 - 22:00","phone":"19001914","updatedAt":"2026-06-23T06:30:29.166Z"},{"_id":"000000000000000000000008","__v":0,"address":"12/5 Nguyễn Ảnh Thủ, Phường Hiệp Thành, Quận 12","city":"Hồ Chí Minh","coordinates":{"lat":10.8795,"lng":106.6348},"coverage_radius_km":5,"createdAt":"2026-06-23T06:30:29.257Z","is_active":true,"manager":"","name":"Bách hóa XANH Nguyễn Ảnh Thủ","operating_hours":"08:00 - 22:00","phone":"19001915","updatedAt":"2026-06-23T06:30:29.257Z"},{"_id":"000000000000000000000009","__v":0,"address":"400 Cách Mạng Tháng Tám, Phường 11, Quận 10","city":"Hồ Chí Minh","coordinates":{"lat":10.7831,"lng":106.6713},"coverage_radius_km":5,"createdAt":"2026-06-23T06:30:29.362Z","is_active":true,"manager":"","name":"Bách hóa XANH CMT8","operating_hours":"08:00 - 22:00","phone":"19001916","updatedAt":"2026-06-23T06:30:29.362Z"}]